City_ID,City,Lat,Lng,Max Temp,Humidity,Cloudiness,Wind Speed,Country,Date
0,adamstown,-25.066,-130.1015,21.59,70,20,3.49,PN,1701399198
1,yalta,44.5,34.1667,8.17,94,56,0.99,UA,1701399073
2,nuuk,64.1835,-51.7216,4.34,75,100,4.63,GL,1701399199
3,wailua homesteads,22.0669,-159.378,24.24,92,100,4.63,US,1701399199
4,edinburgh of the seven seas,-37.0676,-12.3116,12.5,72,93,7.45,SH,1701399200
5,puerto natales,-51.7236,-72.4875,3.67,64,7,4.31,CL,1701399200
6,hami,42.8,93.45,1.7,22,5,0.74,CN,1701399201
7,thompson,55.7435,-97.8558,-18.91,65,0,4.12,CA,1701399201
8,papatowai,-46.5619,169.4708,13.3,55,15,3.29,NZ,1701399202
9,kindu,-2.95,25.95,19.19,99,99,0.34,CD,1701399202
10,olonkinbyen,70.9221,-8.7187,-1.11,76,36,5.79,SJ,1701399203
11,blackmans bay,-43.0167,147.3167,17.63,65,89,0.89,AU,1701399203
12,cruzeiro do sul,-29.5128,-51.9853,23.93,87,89,0.69,BR,1701399203
13,bethel,41.3712,-73.414,9.2,69,0,3.09,US,1701399204
14,yellowknife,62.456,-114.3525,-15.71,92,100,2.06,CA,1701399022
15,newman,37.3138,-121.0208,14.05,46,44,0.89,US,1701399205
16,gadzhiyevo,69.2551,33.3362,-13.37,98,90,3.61,RU,1701399206
17,iwon-up,40.3231,128.6553,0.2,28,14,0.95,KP,1701399206
18,portland,45.5234,-122.6762,4.6,94,100,4.12,US,1701398919
19,namdrik,5.5994,168.1028,27.96,79,65,7.56,MH,1701399207
20,lewistown,40.5992,-77.5714,4.25,96,0,0.0,US,1701399208
21,talnakh,69.4865,88.3972,-21.0,92,75,0.36,RU,1701399198
22,keflavik,64.0049,-22.5624,0.24,74,75,9.26,IS,1701399209
23,ribeira grande,38.5167,-28.7,14.32,74,96,1.34,PT,1701399209
24,whitehorse,60.7161,-135.0538,-6.57,86,40,4.12,CA,1701398953
25,talara,-4.5772,-81.2719,21.42,83,0,6.17,PE,1701399210
26,cabo san lucas,22.8909,-109.9124,24.31,55,42,2.71,MX,1701398590
27,lihue,21.9789,-159.3672,24.58,91,100,4.63,US,1701399211
28,longyearbyen,78.2186,15.6401,-9.09,62,40,8.75,SJ,1701399212
29,utrik,11.2278,169.8474,27.47,77,100,8.39,MH,1701399212
30,slave lake,55.2834,-114.769,-10.01,85,0,1.54,CA,1701399213
31,port alfred,-33.5906,26.891,16.21,86,6,1.34,ZA,1701399213
32,hawaiian paradise park,19.5933,-154.9731,22.73,96,75,2.57,US,1701399214
33,crane,31.3974,-102.3501,12.74,35,6,4.38,US,1701399214
34,susuman,62.7833,148.1667,-19.61,98,100,1.4,RU,1701399215
35,vadso,70.0744,29.7487,-4.91,93,20,5.14,NO,1701399215
36,ushuaia,-54.8,-68.3,4.81,65,0,1.54,AR,1701399216
37,grytviken,-54.2811,-36.5092,2.7,76,89,5.13,GS,1701399216
38,minas de marcona,-15.2119,-75.1103,14.77,80,70,5.11,PE,1701399216
39,iqaluit,63.7506,-68.5145,-3.15,86,100,9.77,CA,1701399217
40,petropavlovsk-kamchatsky,53.0452,158.6483,-1.67,77,75,7.15,RU,1701399217
41,port-aux-francais,-49.35,70.2167,1.97,80,17,15.27,TF,1701399218
42,alice springs,-23.7,133.8833,27.75,51,0,2.57,AU,1701399218
43,waingapu,-9.6567,120.2641,31.27,64,83,3.7,ID,1701399219
44,kodiak,57.79,-152.4072,2.73,87,100,2.06,US,1701399039
45,kailua-kona,19.6406,-155.9956,26.98,78,100,6.17,US,1701398934
46,sandakan,5.8402,118.1179,25.82,94,40,0.0,MY,1701399221
47,waitangi,-43.9535,-176.5597,12.12,66,5,6.65,NZ,1701399221
48,daoukro,7.0591,-3.9631,22.72,96,49,0.94,CI,1701399222
49,jayapura,-2.5333,140.7,26.66,89,100,0.67,ID,1701399222
50,tongouson,5.0214,120.1328,28.54,77,58,3.78,PH,1701399223
51,guerrero negro,27.9769,-114.0611,18.3,68,85,3.25,MX,1701399223
52,rio preto da eva,-2.6994,-59.6997,23.83,86,60,0.63,BR,1701399223
53,margaret river,-33.95,115.0667,23.58,56,3,3.69,AU,1701399224
54,valle de la pascua,9.2155,-66.0073,22.34,85,0,2.45,VE,1701399127
55,axim,4.8699,-2.2405,26.0,87,36,2.31,GH,1701399225
56,port elizabeth,-33.918,25.5701,17.16,92,0,4.63,ZA,1701399126
57,zuni pueblo,35.0725,-108.8506,1.35,79,100,7.49,US,1701399226
58,fonte boa,-2.4959,-66.2662,23.37,98,99,0.95,BR,1701399226
59,zeya,53.75,127.2667,-11.4,64,10,0.45,RU,1701399227
60,selfoss,63.9331,-20.9971,-1.7,59,33,6.24,IS,1701399227
61,tateyama,34.9833,139.8667,11.07,52,99,2.02,JP,1701399228
62,mata de sao joao,-12.5303,-38.2992,26.86,96,12,1.69,BR,1701399228
63,dudinka,69.4058,86.1778,-20.77,84,68,2.66,RU,1701399229
64,foz do sousa,41.0967,-8.5018,8.38,94,80,0.89,PT,1701399229
65,chardara,41.2547,67.9692,6.63,70,13,1.49,KZ,1701399230
66,ust-nera,64.5667,143.2,-23.83,98,100,1.27,RU,1701399230
67,namibe,-15.1961,12.1522,23.78,84,100,2.86,AO,1701399231
68,eket,4.6412,7.9209,25.5,90,74,2.01,NG,1701399232
69,zambezi,-13.5432,23.1047,17.99,92,96,1.54,ZM,1701399232
70,touros,-5.1989,-35.4608,25.51,83,72,3.95,BR,1701399233
71,baishan,41.9431,126.4286,-8.61,68,52,2.1,CN,1701399233
72,jamestown,42.097,-79.2353,8.64,61,0,5.14,US,1701399234
73,arno,60.1167,18.6333,-0.68,90,100,8.56,SE,1701399234
74,al ghayzah,16.2079,52.176,24.26,71,3,3.02,YE,1701399235
75,olyokminsk,60.3736,120.4264,-15.81,87,99,4.18,RU,1701399235
76,bredasdorp,-34.5322,20.0403,18.5,57,9,4.66,ZA,1701399236
77,san julian,21.0167,-102.1667,15.36,64,100,2.49,MX,1701399236
78,qaqortoq,60.7167,-46.0333,0.41,65,100,6.47,GL,1701399237
79,tsengel,49.4783,100.8894,-11.52,60,15,2.52,MN,1701399237
80,saipan,15.1355,145.701,31.39,74,40,8.23,MP,1701399238
81,malango,-2.9627,119.9001,29.0,57,67,1.82,ID,1701399238
82,hammerfest,70.6634,23.6821,0.25,100,100,5.66,NO,1701399154
83,ntcheu,-14.8203,34.6359,17.63,89,100,2.43,MW,1701399239
84,queenstown,-31.8976,26.8753,12.25,52,3,1.2,ZA,1701399239
85,antofagasta,-23.65,-70.4,18.6,74,14,0.54,CL,1701399240
86,hithadhoo,-0.6,73.0833,27.79,76,100,5.34,MV,1701399240
87,farafangana,-22.8167,47.8333,23.51,91,99,4.08,MG,1701399241
88,vilyuchinsk,52.9306,158.4028,-0.85,73,100,4.41,RU,1701399241
89,west island,-12.1568,96.8225,27.99,65,40,6.17,CC,1701399242
90,tucuma,-0.1833,-50.05,25.27,88,2,2.39,BR,1701399242
91,ta`u,-14.2336,-169.5144,28.13,79,31,7.97,AS,1701399243
92,puerto ayora,-0.7393,-90.3518,24.75,91,90,3.13,EC,1701399243
93,ceeldheer,3.8488,47.1806,25.41,73,29,7.58,SO,1701399244
94,puerto leguizamo,-0.1934,-74.7819,23.81,89,99,1.29,CO,1701399244
95,piacabucu,-10.4056,-36.4344,24.74,81,59,3.91,BR,1701399245
96,bubaque,11.2833,-15.8333,28.02,74,93,5.61,GW,1701399245
97,peterborough,52.5736,-0.2478,-0.05,93,75,4.63,GB,1701399003
98,tazovsky,67.4667,78.7,-22.4,99,62,2.25,RU,1701399246
99,yemetsk,63.4721,41.7941,-11.34,91,100,2.63,RU,1701399247
100,sai buri,6.7013,101.6168,28.31,76,100,2.66,TH,1701399247
101,bonthe,7.5264,-12.505,25.84,85,88,0.72,SL,1701399240
102,remire-montjoly,4.9167,-52.2667,27.02,78,0,1.54,GF,1701399249
103,college,64.8569,-147.8028,-8.03,84,75,1.54,US,1701399249
104,udachny,66.4167,112.4,-26.35,94,62,8.1,RU,1701399250
105,albany,42.6001,-73.9662,7.07,72,50,2.43,US,1701399250
106,galesong,-5.3166,119.3661,30.01,65,94,1.74,ID,1701399251
107,roccella ionica,38.322,16.4009,17.51,69,77,6.03,IT,1701399251
108,myeik,12.4333,98.6,28.81,65,11,2.78,MM,1701399252
109,el aioun,34.5832,-2.5061,14.76,38,100,2.41,MA,1701399252
110,treasure island,27.7692,-82.769,20.1,77,0,2.57,US,1701399253
111,khandyga,62.6667,135.6,-30.7,98,100,0.21,RU,1701399253
112,ilulissat,69.2167,-51.1,7.01,31,79,13.38,GL,1701399254
113,tucurui,-3.7661,-49.6725,23.26,94,1,2.04,BR,1701399254
114,makokou,0.5738,12.8642,20.61,98,42,0.2,GA,1701399255
115,aral,40.5156,81.2636,2.65,43,99,0.84,CN,1701399255
116,chonchi,-42.6128,-73.8092,11.18,87,100,2.48,CL,1701399256
117,polyarnyy,69.1989,33.4478,-12.6,97,88,3.77,RU,1701399256
118,melekeok village,7.4957,134.6367,31.31,70,75,4.63,PW,1701399257
119,lloydminster,53.2835,-110.0016,-9.88,85,0,3.6,CA,1701399235
120,lazaro cardenas,17.9583,-102.2,25.56,83,92,1.21,MX,1701399258
121,badger,64.8,-147.5333,-8.07,87,75,1.54,US,1701399259
122,smiltene,57.4244,25.9016,-6.09,97,100,1.0,LV,1701399259
123,vershino-darasunskiy,52.35,115.5167,-15.33,82,95,1.14,RU,1701399260
124,invercargill,-46.4,168.35,15.17,49,2,4.52,NZ,1701399260
125,saint-joseph,-21.3667,55.6167,24.21,66,79,1.52,RE,1701399261
126,vorkuta,67.5,64.0,-22.33,99,81,1.69,RU,1701399261
127,mejit,10.2753,170.8646,27.63,76,100,8.85,MH,1701399262
128,flying fish cove,-10.4217,105.6791,27.82,65,40,4.63,CX,1701399262
129,fisterra,42.9049,-9.2629,11.53,69,79,8.0,ES,1701399263
130,east london,-33.0153,27.9116,17.16,76,5,9.19,ZA,1701399263
131,arcadia,34.1397,-118.0353,16.15,76,75,1.3,US,1701399117
132,enewetak,11.3474,162.3373,27.82,77,100,7.05,MH,1701399264
133,isafjordur,66.0755,-23.124,-1.45,76,100,6.03,IS,1701399265
134,bikenibeu village,1.3673,173.1241,30.98,70,75,2.06,KI,1701399265
135,paramirim,-13.4425,-42.2389,22.8,43,1,0.94,BR,1701399266
136,taghazout,30.5426,-9.7112,14.43,48,12,3.49,MA,1701399266
137,westport,41.1415,-73.3579,9.9,72,0,6.69,US,1701399267
138,vila velha,-20.3297,-40.2925,25.97,84,0,4.47,BR,1701399267
139,huarmey,-10.0681,-78.1522,20.69,85,97,4.73,PE,1701399268
140,constantia,44.1833,28.65,5.39,88,88,6.42,RO,1701399268
141,akureyri,65.6835,-18.0878,-0.04,86,100,3.6,IS,1701399269
142,hirara,24.8,125.2833,18.92,94,75,10.8,JP,1701399269
143,avarua,-21.2078,-159.775,27.03,69,20,7.72,CK,1701399270
144,fort st. john,56.2499,-120.8529,-13.06,85,20,4.12,CA,1701399270
145,kingscliff,-28.2667,153.5667,33.76,54,64,7.2,AU,1701399271
146,chegdomyn,51.1167,133.0167,-17.89,75,58,0.65,RU,1701399271
147,barra de santo antonio,-9.4047,-35.5072,24.6,83,64,4.3,BR,1701399272
148,nogliki,51.8333,143.1667,-12.03,77,59,6.26,RU,1701399272
149,weno,7.4515,151.8468,31.97,70,75,5.14,FM,1701399273
150,yeed,4.55,43.0333,24.51,50,38,4.6,SO,1701399273
151,kristiansund,63.1115,7.732,-2.64,68,100,2.57,NO,1701399274
152,altamira,-3.2033,-52.2064,23.04,93,29,1.25,BR,1701399000
153,wuhai,39.6647,106.8122,-3.54,21,0,4.33,CN,1701399275
154,mityana,0.4175,32.0228,16.02,93,48,0.55,UG,1701399275
155,myitkyina,25.3833,97.4,22.18,48,0,0.84,MM,1701399276
156,puerto baquerizo moreno,-0.9,-89.6,24.21,78,63,3.95,EC,1701399276
157,fale old settlement,-9.3852,-171.2468,29.3,78,75,7.68,TK,1701399277
158,usogorsk,63.4106,48.6872,-16.85,99,93,1.0,RU,1701399277
159,nantucket,41.2835,-70.0995,9.45,77,0,8.23,US,1701399278
160,kot isa khan,30.95,75.1333,16.1,72,0,1.78,IN,1701399278
161,tazacorte,28.629,-17.9293,19.53,97,75,3.13,ES,1701399279
162,rosa zarate,0.3333,-79.4667,24.35,88,97,1.15,EC,1701399279
163,ghat,24.9647,10.1728,17.31,19,0,2.18,LY,1701399280
164,kruisfontein,-34.0033,24.7314,17.82,44,0,3.4,ZA,1701399280
165,khandud,36.9513,72.318,-2.99,85,88,0.72,AF,1701399281
166,taoudenni,22.6783,-3.9836,19.1,16,93,2.34,ML,1701399281
167,borgarnes,64.5383,-21.9206,0.03,76,16,5.04,IS,1701399282
168,nemuro,43.3236,145.575,-0.59,46,1,8.26,JP,1701399282
169,tiksi,71.6872,128.8694,-22.87,95,100,9.01,RU,1701399283
170,klyuchi,52.2667,79.1667,-0.76,63,100,4.4,RU,1701399283
171,necochea,-38.5473,-58.7368,20.86,43,65,5.62,AR,1701399284
172,nar'yan-mar,67.6713,53.087,-9.38,98,100,1.79,RU,1701399123
173,lebu,-37.6167,-73.65,12.41,80,88,2.49,CL,1701399284
174,belaya kholunitsa,58.84,50.8528,-9.77,91,100,2.86,RU,1701399285
175,takab,36.4009,47.1133,4.89,26,100,1.35,IR,1701399285
176,alexandria,31.2156,29.9553,14.3,71,78,3.0,EG,1701399150
177,anadyr,64.75,177.4833,-5.72,79,20,3.0,RU,1701399286
178,taveta,-3.3963,37.6736,20.72,82,55,1.6,KE,1701399287
179,aasiaat,68.7098,-52.8699,-3.7,82,93,3.04,GL,1701399287
180,bilibino,68.0546,166.4372,-28.81,90,63,1.96,RU,1701399288
181,padre bernardo,-15.35,-48.5,23.33,61,29,1.52,BR,1701399288
182,prado,-17.3411,-39.2208,24.75,89,100,4.94,BR,1701399289
183,gaspe,48.8334,-64.4819,1.95,69,100,2.06,CA,1701399289
184,hermanus,-34.4187,19.2345,17.69,88,7,5.65,ZA,1701399259
185,cannonvale,-20.2833,148.7,29.66,65,29,6.19,AU,1701399290
186,regina,50.4501,-104.6178,-2.94,64,75,3.6,CA,1701398872
187,mikun',62.3547,50.0771,-18.87,100,100,0.79,RU,1701399291
188,ad dilam,23.9915,47.1627,15.23,36,0,1.55,SA,1701399292
189,la passe,45.5549,-0.8967,7.21,83,100,2.73,FR,1701399292
190,egilsstadir,65.2653,-14.3948,-0.05,93,100,8.75,IS,1701399292
191,sitka,57.0531,-135.33,3.94,81,40,4.12,US,1701399293
192,trinity beach,-16.7888,145.6968,38.34,70,10,4.63,AU,1701399293
193,likiep,9.8251,169.3107,27.77,77,99,9.01,MH,1701399294
194,ancud,-41.8697,-73.8203,11.34,87,100,5.8,CL,1701399294
195,cascais,38.6979,-9.4215,13.06,87,100,16.09,PT,1701399295
196,rongelap,11.1635,166.8941,27.94,75,100,8.77,MH,1701399295
197,pospelikha,51.95,81.7667,1.04,94,100,2.79,RU,1701399296
198,yangshuo,24.7808,110.4897,8.38,73,100,2.55,CN,1701399296
199,woolgoolga,-30.1106,153.2007,32.25,48,34,4.62,AU,1701399297
200,kangding,30.0513,101.9603,8.79,53,52,0.43,CN,1701399297
201,margate,51.3813,1.3862,5.39,75,53,2.68,GB,1701399298
202,boende,-0.2167,20.8667,20.48,98,84,0.8,CD,1701399298
203,buala,-8.145,159.5921,29.03,75,100,2.93,SB,1701399299
204,port lincoln,-34.7333,135.8667,18.17,61,21,7.48,AU,1701399299
205,bardai,11.65,7.2333,20.63,23,90,3.99,NG,1701399299
206,la'ie,21.6477,-157.9253,26.17,75,100,0.45,US,1701399300
207,aykhal,66.0,111.5,-29.42,100,91,4.86,RU,1701399301
208,mongo,12.1844,18.693,24.16,26,5,1.82,TD,1701399301
209,hanceville,34.0607,-86.7675,11.95,49,100,4.39,US,1701399302
210,porto murtinho,-21.6989,-57.8825,25.04,90,100,2.15,BR,1701399302
211,port mathurin,-19.6833,63.4167,25.16,77,33,6.13,MU,1701399303
212,revelstoke,50.9832,-118.2023,-1.99,64,100,1.03,CA,1701399146
213,bechar,31.6167,-2.2167,13.18,28,0,3.09,DZ,1701399304
214,kivertsi,50.8343,25.4582,-2.81,99,100,0.77,UA,1701399304
215,salinopolis,-0.6136,-47.3561,26.68,81,53,4.16,BR,1701399305
216,am timan,11.0297,20.2827,24.01,31,90,2.18,TD,1701399305
217,lata,40.1629,-8.3327,10.45,91,100,0.77,PT,1701399306
218,tamanrasset,22.785,5.5228,8.95,25,0,1.03,DZ,1701399306
219,codrington,-38.2667,141.9667,15.82,79,97,5.15,AU,1701399307
220,afaahiti,-17.75,-149.2833,28.93,88,90,7.66,PF,1701399307
221,sao joao da barra,-21.6403,-41.0511,23.19,94,98,6.94,BR,1701399308
222,chilliwack,49.1747,-121.9443,3.77,84,100,0.45,CA,1701399308
223,yuzhno-kurilsk,44.0306,145.8556,-2.57,59,80,7.23,RU,1701399309
224,zolotonosha,49.6689,32.0377,1.5,94,100,7.26,UA,1701399310
225,fortuna,40.5982,-124.1573,9.81,96,100,0.0,US,1701399310
226,porto novo,6.4965,2.6036,27.9,91,9,1.89,BJ,1701399263
227,vernon,50.2581,-119.2691,0.89,59,100,1.54,CA,1701399271
228,vorgashor,67.5833,63.95,-21.86,98,77,1.74,RU,1701399311
229,betio village,1.358,172.9211,31.02,75,100,2.51,KI,1701399312
230,rakops,-21.0167,24.3333,19.51,64,57,6.45,BW,1701399312
231,leticia,-4.2153,-69.9406,24.03,100,40,1.03,CO,1701399176
232,inari,68.906,27.0288,-10.89,100,80,1.42,FI,1701399313
233,ulladulla,-35.35,150.4667,25.43,77,36,5.54,AU,1701399314
234,borogontsy,62.6683,131.1683,-25.05,91,100,4.29,RU,1701399314
235,hell-ville,-13.4,48.2667,26.45,79,22,2.4,MG,1701399263
236,alesund,62.4723,6.1549,0.97,63,75,3.09,NO,1701399315
237,ayr,55.4627,-4.6339,-2.6,93,0,1.54,GB,1701399316
238,vorozhba,51.1733,34.2192,-3.03,94,100,5.33,UA,1701399316
239,champua,22.0833,85.6667,23.27,53,9,2.51,IN,1701399317
240,starobin,52.7267,27.4606,-8.02,98,100,1.15,BY,1701399318
241,al fallujah,33.3538,43.7795,8.94,56,37,3.67,IQ,1701399318
242,yurga,55.7231,84.8861,-0.31,87,100,5.44,RU,1701399319
243,igarka,67.4667,86.5833,-24.34,98,83,3.24,RU,1701399319
244,inhambane,-23.865,35.3833,19.59,65,49,3.74,MZ,1701399320
245,mena,51.5217,32.2157,-2.2,97,100,5.08,UA,1701399320
246,lauro de freitas,-12.8944,-38.3272,27.01,74,40,4.63,BR,1701399321
247,prince rupert,54.3161,-130.3201,6.83,82,100,10.8,CA,1701399277
248,souillac,-20.5167,57.5167,23.21,88,40,1.54,MU,1701399322
249,dolores,-36.3132,-57.6792,17.55,87,43,4.05,AR,1701399322
250,stanley,54.868,-1.6985,-0.96,96,75,2.06,GB,1701399323
251,punta arenas,-53.15,-70.9167,3.06,81,40,4.12,CL,1701399323
252,aspen,39.1911,-106.8175,-1.96,93,100,0.0,US,1701399324
253,janeng,-25.4167,25.55,16.8,72,0,7.74,BW,1701399324
254,tolanaro,-25.0319,46.9987,23.04,88,75,6.17,MG,1701399325
255,kujang-up,39.8672,126.0303,-4.41,47,0,1.54,KP,1701399325
256,menemen,38.6075,27.0694,16.88,82,40,2.57,TR,1701399326
257,concepcion del oro,24.6333,-101.4167,13.81,32,54,2.13,MX,1701399326
258,haiku-pauwela,20.9219,-156.3051,25.09,72,75,3.09,US,1701399327
259,saldanha,-33.0117,17.9442,18.03,92,1,3.74,ZA,1701399327
260,mirny,62.5353,113.9611,-23.76,76,97,3.13,RU,1701399328
261,palo alto,37.4419,-122.143,13.86,79,40,6.17,US,1701399328
262,kavieng,-2.5744,150.7967,29.41,70,48,2.89,PG,1701399328
263,gemena,3.25,19.7667,21.01,98,97,1.18,CD,1701399329
264,copiapo,-27.3667,-70.3333,13.83,69,0,1.68,CL,1701398967
265,brookings,44.3114,-96.7984,-2.68,71,0,1.54,US,1701399330
266,oskarshamn,57.2645,16.4484,-1.12,96,100,6.97,SE,1701399330
267,al bawiti,28.3492,28.8659,13.5,82,0,3.04,EG,1701399331
268,cidreira,-30.1811,-50.2056,21.28,95,24,4.09,BR,1701399331
269,praia da vitoria,38.7333,-27.0667,13.14,82,20,2.11,PT,1701399332
270,korets,50.6165,27.1605,-2.05,98,100,0.99,UA,1701399332
271,arraial do cabo,-22.9661,-42.0278,23.98,88,20,3.09,BR,1701399333
272,orrville,40.8437,-81.764,9.17,49,100,3.6,US,1701399333
273,mao,39.8885,4.2658,18.35,80,100,10.4,ES,1701399334
274,allapalli,19.4167,80.0667,24.24,77,9,0.32,IN,1701399334
275,broome,42.2506,-75.833,6.21,69,0,6.17,US,1701399335
276,dryden,49.7833,-92.7503,-10.84,79,40,3.09,CA,1701399335
277,forster,-32.1667,152.5167,25.21,67,5,5.32,AU,1701399336
278,ugoofaaru,5.6667,73.0,28.34,72,78,2.12,MV,1701399336
279,sao vicente,-23.9631,-46.3919,28.1,93,6,1.58,BR,1701399337
280,kolonia,50.9333,6.95,2.14,90,57,2.07,DE,1701399338
281,sao jose da coroa grande,-8.8978,-35.1478,24.91,80,78,3.56,BR,1701399338
282,st. john's,47.5649,-52.7093,-0.62,90,20,3.09,CA,1701399131
283,neon karlovasion,37.7903,26.7044,19.39,82,4,4.99,GR,1701399339
284,sur,22.5667,59.5289,23.81,64,0,2.28,OM,1701399340
285,howrah,22.5892,88.3103,23.0,78,18,3.6,IN,1701399340
286,northam,51.0333,-4.2167,3.12,85,12,5.44,GB,1701399341
287,hafar al-batin,28.4328,45.9708,11.32,54,0,1.54,SA,1701399341
288,geraldton,-28.7667,114.6,31.23,40,0,3.09,AU,1701399342
289,pontes e lacerda,-15.2261,-59.3353,23.15,85,15,0.98,BR,1701399342
290,yaren,-0.5472,166.916,29.12,74,100,6.64,NR,1701399343
291,inirida,3.8653,-67.9239,24.91,81,94,1.26,CO,1701399343
292,swakopmund,-22.6833,14.5333,17.77,82,34,0.89,NA,1701399344
293,kingston,17.997,-76.7936,27.53,69,20,4.63,JM,1701398854
294,farmington,36.7281,-108.2187,3.38,84,100,2.57,US,1701399088
295,bathsheba,13.2167,-59.5167,26.34,83,40,6.17,BB,1701399345
296,rosarito,32.3333,-117.0333,15.63,81,18,5.09,MX,1701399320
297,chibougamau,49.9168,-74.3659,-3.21,100,100,3.09,CA,1701399346
298,villefranche-de-rouergue,44.3333,2.0,8.43,98,100,1.16,FR,1701399346
299,atafu village,-8.5421,-172.5159,29.54,76,99,7.18,TK,1701399347
300,kapa'a,22.0752,-159.319,24.99,92,100,4.63,US,1701399089
301,papao,-17.75,-149.55,29.82,86,95,8.64,PF,1701399348
302,ketchikan,55.3422,-131.6461,5.26,87,100,9.26,US,1701399235
303,saint-philippe,-21.3585,55.7679,24.77,68,81,2.22,RE,1701399349
304,kudahuvadhoo,2.6708,72.8944,28.4,75,100,4.17,MV,1701399349
305,vegachi,6.7614,-74.7947,19.26,97,98,1.32,CO,1701399350
306,koryazhma,61.3143,47.1691,-8.38,89,100,3.26,RU,1701399350
307,mishelevka,52.8575,103.1719,-10.15,86,100,0.62,RU,1701399351
308,roma,43.2128,-75.4557,7.71,57,0,3.6,US,1701399351
309,asubulaq,49.5583,83.0558,-1.01,94,100,1.86,KZ,1701399352
310,luderitz,-26.6481,15.1594,16.62,97,40,0.68,NA,1701399352
311,port moresby,-9.4431,147.1797,32.68,58,40,5.14,PG,1701399353
312,hamilton,39.1834,-84.5333,12.97,51,100,3.6,US,1701398940
313,iranshahr,27.2025,60.6848,16.19,48,0,3.09,IR,1701399354
314,dapa,9.7594,126.0531,27.47,81,100,3.06,PH,1701399354
315,tabuk,17.4189,121.4443,27.73,74,62,2.07,PH,1701399354
316,wainwright,52.839,-110.8572,-7.38,83,4,2.21,CA,1701399355
317,fedorovskiy,45.0972,40.9517,6.78,88,100,2.4,RU,1701399356
318,georgetown,5.4112,100.3354,30.53,70,20,2.57,MY,1701399194
319,ixtapa,20.7,-105.2,20.97,89,20,1.07,MX,1701399357
320,siwa oasis,29.2041,25.5195,14.05,48,2,1.33,EG,1701399358
321,shimoda,34.6667,138.95,12.2,54,27,7.26,JP,1701399358
322,dunedin,-45.8742,170.5036,12.87,63,10,4.17,NZ,1701399357
323,dazhong,33.1997,120.4578,5.93,19,0,4.4,CN,1701399359
324,kapuskasing,49.4169,-82.4331,-13.95,85,0,2.57,CA,1701399182
325,iskateley,67.6803,53.1512,-9.43,98,100,1.79,RU,1701399360
326,waddan,29.1614,16.139,15.19,32,0,3.18,LY,1701399360
327,neiafu,-18.65,-173.9833,30.38,79,20,5.14,TO,1701399361
328,puerto armuelles,8.2833,-82.8667,27.27,76,42,1.79,PA,1701399362
329,tura,25.5198,90.2201,22.82,58,3,0.78,IN,1701399362
330,hadibu,12.65,54.0333,25.7,71,100,7.23,YE,1701399363
331,burang,30.25,81.1667,-6.5,79,100,1.89,CN,1701399363
332,pakokku,21.3333,95.1,24.26,63,65,3.95,MM,1701399350
333,tsiombe,-25.3,45.4833,21.18,77,100,4.99,MG,1701399364
334,la mitra,8.8422,-79.7867,26.82,92,84,2.24,PA,1701399365
335,mokhotlong,-29.2894,29.0675,9.32,51,2,0.29,LS,1701399365
336,moengo,5.6167,-54.4,23.42,94,100,1.11,SR,1701399366
337,cockburn town,21.4612,-71.1419,27.32,75,60,9.25,TC,1701399367
338,leava,-14.3,-178.1667,28.74,79,99,5.98,WF,1701399367
339,nurmijarvi,60.4641,24.8073,-4.69,90,75,5.14,FI,1701399368
340,tangancicuaro de arista,19.9,-102.1333,14.34,90,76,2.01,MX,1701399368
341,yigo village,13.5361,144.8886,31.62,76,75,6.69,GU,1701399369
342,posto fiscal rolim de moura,-13.0833,-62.2667,23.28,92,89,1.36,BR,1701399369
343,mukalla,14.5425,49.1242,24.04,68,8,1.13,YE,1701399370
344,zouerate,22.7187,-12.4521,19.98,22,100,3.04,MR,1701399370
345,meadow lakes,61.6247,-149.6011,2.68,68,100,6.69,US,1701399371
346,lae,-6.7221,146.9847,35.37,65,95,4.36,PG,1701399371
347,niafunke,15.9322,-3.9906,24.81,16,1,4.26,ML,1701399372
348,sukhothai,17.25,99.6667,25.94,83,0,2.06,TH,1701399372
349,mar del plata,-38.0023,-57.5575,22.01,68,0,3.6,AR,1701399362
350,hiratacho,35.4333,132.8167,7.98,57,75,5.66,JP,1701399373
351,rimus,16.8764,120.3966,30.24,60,42,2.73,PH,1701399374
352,auki,-8.7676,160.7034,29.18,71,100,1.21,SB,1701399374
353,tanjung pandan,-2.75,107.65,25.94,87,100,2.08,ID,1701399375
354,kulhudhuffushi,6.6221,73.07,28.47,72,90,2.9,MV,1701399375
355,gulf shores,30.246,-87.7008,19.47,70,75,3.6,US,1701399223
356,pisco,-13.7,-76.2167,20.03,83,0,7.2,PE,1701399325
357,alofi,-19.0595,-169.9187,28.94,70,75,4.63,NU,1701399377
358,tobelo,1.7284,128.0095,29.21,72,84,2.68,ID,1701399377
359,kharkhorin,47.1975,102.8238,-8.77,71,5,1.88,MN,1701399378
360,makarov,48.6333,142.8,-6.29,54,10,1.7,RU,1701399378
361,aoulef,26.9667,1.0833,15.33,14,2,1.39,DZ,1701399379
362,wittstock,53.1612,12.4829,-6.14,94,9,1.51,DE,1701399379
363,buka,40.8108,69.1986,6.49,85,10,0.4,UZ,1701399380
364,callao,-12.0667,-77.15,22.62,77,0,4.12,PE,1701399097
365,naro moru,-0.1676,37.0213,10.82,90,36,1.15,KE,1701399381
366,el calafate,-50.3408,-72.2768,5.23,57,0,3.71,AR,1701399381
367,fairmont,39.4851,-80.1426,9.65,87,2,2.1,US,1701399382
368,general villegas,-35.0328,-63.0125,19.82,90,68,3.4,AR,1701399382
369,ahlat,38.7518,42.4814,2.11,64,0,1.69,TR,1701399383
370,torghay,49.6339,63.4981,-1.65,93,11,4.16,KZ,1701399383
371,mount gambier,-37.8333,140.7667,18.81,61,88,4.74,AU,1701399384
372,malabar,-33.9667,151.25,23.84,65,40,6.17,AU,1701399384
373,mata-utu,-13.2816,-176.1745,28.78,78,67,7.81,WF,1701399231
374,labrador city,52.9463,-66.9114,-8.05,86,75,2.06,CA,1701399386
375,mwatate,-3.5029,38.3795,20.09,86,62,1.05,KE,1701399386
376,mili,6.0815,171.735,28.07,80,100,8.67,MH,1701399386
377,areia,-6.9633,-35.6917,21.77,93,97,3.07,BR,1701399387
378,mogadishu,2.0371,45.3438,27.24,72,100,7.88,SO,1701399387
379,yanbu,24.0891,38.0637,23.02,83,0,0.0,SA,1701399388
380,vila franca do campo,37.7167,-25.4333,13.23,67,97,3.21,PT,1701399388
381,lorengau,-2.0226,147.2712,28.47,78,81,2.25,PG,1701399389
382,san luis de la loma,17.2706,-100.8939,26.07,78,100,1.86,MX,1701399389
383,labuan,5.2767,115.2417,31.2,74,20,1.03,MY,1701399390
384,lodwar,3.1191,35.5973,26.41,48,21,3.24,KE,1701399390
385,west fargo,46.875,-96.9004,-4.43,76,0,2.57,US,1701399391
386,nema,57.5067,50.5011,-6.77,95,100,3.51,RU,1701399391
387,coquimbo,-29.9533,-71.3436,14.85,88,100,2.57,CL,1701399264
388,kutum,14.2,24.6667,17.05,27,0,3.16,SD,1701399392
389,san rafael del yuma,18.4299,-68.6739,26.76,84,9,3.56,DO,1701399393
390,matoury,4.8483,-52.3317,26.98,78,0,1.54,GF,1701399394
391,sisimiut,66.9395,-53.6735,1.62,71,100,5.16,GL,1701399394
392,borgo,46.0514,11.4544,6.82,100,100,0.51,IT,1701399395
393,djibo,14.1022,-1.6306,25.75,21,11,4.11,BF,1701399395
394,pangai,-19.8,-174.35,30.06,70,40,5.14,TO,1701399396
395,levelland,33.5873,-102.378,4.55,64,4,4.07,US,1701399396
396,nuku'alofa,-21.1333,-175.2,30.19,79,20,6.17,TO,1701399397
397,el banco,9.0011,-73.9758,24.39,93,8,0.41,CO,1701399397
398,argo,37.6333,22.7333,12.1,68,20,1.94,GR,1701399398
399,arkhipo-osipovka,44.37,38.52,8.69,88,100,3.89,RU,1701399398
400,malvan,16.0667,73.4667,26.02,72,20,2.96,IN,1701399399
401,calama,-22.4667,-68.9333,15.27,18,0,4.12,CL,1701399248
402,dieppe,49.75,1.1667,3.44,90,96,2.88,FR,1701399400
403,eldama ravine,0.0516,35.7308,11.65,88,72,1.04,KE,1701399400
404,camana,-16.6228,-72.7111,19.59,83,45,2.33,PE,1701399401
405,gebeit,21.0667,36.3167,19.7,90,0,2.64,SD,1701399401
406,itacare,-14.2775,-38.9967,24.62,86,39,3.45,BR,1701399402
407,kuala pilah,2.7389,102.2487,27.15,87,100,1.2,MY,1701399402
408,harenkarspel,52.7342,4.7768,0.59,80,84,1.34,NL,1701399402
409,bria,6.5423,21.9863,21.36,85,4,1.48,CF,1701399403
410,kearney,40.6995,-99.0815,0.31,74,0,7.2,US,1701399403
411,latakia,35.5148,35.7768,14.9,60,14,3.51,SY,1701399404
412,tibanbang,6.6315,126.1055,28.08,76,41,2.96,PH,1701399404
413,takoradi,4.8845,-1.7554,25.82,88,35,2.39,GH,1701399405
414,itupiranga,-5.1347,-49.3267,27.18,77,36,1.25,BR,1701399358
415,pucallpa,-8.3791,-74.5539,25.02,94,40,1.03,PE,1701399406
416,huoqiu chengguanzhen,32.3547,116.2939,6.69,22,7,2.32,CN,1701399406
417,nouadhibou,20.931,-17.0347,20.33,88,100,2.74,MR,1701399322
418,erwin,36.1451,-82.4168,7.1,70,80,1.91,US,1701399407
419,rumonge,-3.9736,29.4386,21.19,89,100,2.16,BI,1701399407
420,new norfolk,-42.7826,147.0587,18.29,44,89,2.01,AU,1701399408
421,cova figueira,14.8905,-24.2934,22.16,78,100,3.76,CV,1701399408
422,mount isa,-20.7333,139.5,36.87,32,39,5.66,AU,1701399409
423,darnah,32.767,22.6367,17.28,79,2,2.36,LY,1701399409
424,cadale,2.7603,46.3222,26.45,76,39,7.64,SO,1701399410
425,luganville,-15.5333,167.1667,29.23,70,59,5.2,VU,1701399193
426,nova vicosa,-17.8919,-39.3719,24.94,86,100,4.94,BR,1701399411
427,kone,-21.0595,164.8658,29.4,58,54,2.4,NC,1701399411
428,fort bragg,35.139,-79.006,7.68,73,0,0.0,US,1701399412
429,sinabang,2.4803,96.3801,26.86,83,85,0.14,ID,1701399412
430,vikulovo,56.8167,70.6107,-3.39,96,100,2.24,RU,1701399412
431,nova sintra,14.8667,-24.7167,22.09,76,100,4.71,CV,1701399413
432,videira,-27.0083,-51.1517,19.1,98,87,1.07,BR,1701399413
433,mandalgovi,45.7625,106.2708,-6.66,38,3,4.47,MN,1701399414
434,daru,-9.0763,143.2092,30.8,66,25,5.53,PG,1701399414
435,black point,-34.6187,137.8972,19.05,65,100,6.52,AU,1701399415
436,ataq,14.5377,46.8319,16.4,53,60,1.39,YE,1701399416
437,lospalos,-8.5186,127.0025,33.32,43,76,2.0,TL,1701399416
438,tashtagol,52.7657,87.8894,0.85,97,100,0.89,RU,1701399417
439,labytnangi,66.6572,66.4183,-23.65,99,87,0.97,RU,1701399418
440,raduzhny,62.0961,77.475,-16.51,98,38,1.65,RU,1701399419
441,isabela,6.7085,121.9711,31.03,71,26,1.75,PH,1701399419
442,stradella,45.0731,9.3008,4.37,93,100,0.54,IT,1701399420
443,las khorey,11.1595,48.1967,25.25,67,96,4.01,SO,1701399420
444,erenhot,43.6475,111.9767,-7.94,57,13,6.94,CN,1701399421
445,yicheng,31.3705,119.8703,6.49,28,4,3.67,CN,1701399421
446,qom,34.6401,50.8764,9.81,47,68,0.3,IR,1701399422
447,sinop,41.7711,34.8709,8.67,85,90,4.97,TR,1701399241
448,fauske,67.2588,15.3918,-5.13,74,100,2.03,NO,1701399423
449,kill devil hills,36.0307,-75.676,9.43,77,0,0.0,US,1701399383
450,ola,59.5833,151.2833,-8.25,93,100,1.92,RU,1701399424
451,mount pearl,47.5166,-52.7813,-1.08,90,20,3.09,CA,1701399425
452,ouadda,8.0777,22.4007,20.64,48,2,1.04,CF,1701399425
453,ngunut,-8.1058,112.0159,27.06,82,100,5.59,ID,1701399426
454,kuala tungkal,-0.8167,103.4667,25.25,88,100,1.7,ID,1701399426
455,lerwick,60.1545,-1.1494,0.0,68,68,1.97,GB,1701399375
456,serowe,-22.3833,26.7167,13.45,91,0,4.24,BW,1701399427
457,san antonio de pale,-1.4014,5.6325,26.73,83,98,5.24,GQ,1701399428
458,shenjiamen,29.9576,122.298,8.31,44,6,9.27,CN,1701399428
459,blackwater,-23.5833,148.8833,35.19,33,15,7.57,AU,1701399429
460,darwin,-12.4611,130.8418,36.14,63,20,6.71,AU,1701399429
461,dhidhdhoo,6.8833,73.1,28.5,73,92,3.43,MV,1701399429
462,el abiodh sidi cheikh,32.893,0.5484,11.94,34,100,5.14,DZ,1701399430
463,enterprise,36.0252,-115.2419,13.3,32,75,3.6,US,1701399370
464,carnarvon,-24.8667,113.6333,25.34,68,9,5.68,AU,1701399431
465,wanlaweyn,2.6185,44.8938,26.14,62,100,4.92,SO,1701399432
466,sogndal,61.2283,7.1003,-9.79,92,51,0.0,NO,1701399432
467,coari,-4.085,-63.1414,23.04,99,100,0.82,BR,1701399195
468,umm al quwain city,25.5647,55.5552,22.01,67,0,2.57,AE,1701399433
469,magistral'nyy,56.1725,107.4458,-17.02,94,98,1.21,RU,1701399434
470,yenangyaung,20.4667,94.8833,25.05,59,90,4.02,MM,1701399434
471,siocon,7.7061,122.1353,30.76,70,47,2.41,PH,1701399434
472,bandarbeyla,9.4942,50.8122,25.57,70,81,9.04,SO,1701399436
473,narvik,68.4384,17.4272,-3.74,78,100,1.72,NO,1701399436
474,pamandzi,-12.7967,45.2794,25.88,89,0,0.51,YT,1701399436
475,naze,28.3667,129.4833,16.51,67,100,5.89,JP,1701399437
476,turabah,21.2141,41.6331,17.65,49,0,3.37,SA,1701399438
477,belyy yar,53.6039,91.3903,-12.06,92,20,1.0,RU,1701399438
478,chake chake,-5.2459,39.7666,25.45,87,18,3.43,TZ,1701399439
479,okahandja,-21.9833,16.9167,20.69,56,76,4.62,NA,1701399439
480,selters,50.5168,8.2895,2.32,98,100,1.41,DE,1701399440
481,hard bargain,26.3167,-77.5667,24.23,76,67,6.58,BS,1701399441
482,tshikapa,-6.4167,20.8,20.82,98,100,0.78,CD,1701399441
483,katsuura,35.1333,140.3,10.65,49,100,0.02,JP,1701399442
484,pirenopolis,-15.8525,-48.9592,23.27,67,19,2.08,BR,1701399442
485,languyan,5.2618,120.0807,29.7,71,51,2.37,PH,1701399443
486,ust'-ilimsk,58.0006,102.6619,-13.09,78,100,2.62,RU,1701399443
487,aboso,5.3617,-1.9473,23.75,98,76,0.94,GH,1701399444
488,ishinomaki,38.4167,141.3,8.0,62,23,7.33,JP,1701399444
489,altkirch,47.5833,7.1667,4.23,100,100,0.62,FR,1701399445
490,port-vila,-17.7338,168.3219,30.78,62,20,5.66,VU,1701399446
491,kavaratti,10.5669,72.642,28.19,76,100,4.87,IN,1701399446
492,rio grande,-32.035,-52.0986,21.64,93,80,5.16,BR,1701399447
493,hasaki,35.7333,140.8333,12.38,54,100,1.43,JP,1701399447
494,woodlake,37.4211,-77.6793,7.26,70,0,1.54,US,1701399448
495,goundam,16.4145,-3.6708,23.94,17,3,3.72,ML,1701399448
496,toliara,-23.35,43.6667,23.83,79,100,6.46,MG,1701399449
497,mhamid,29.82,-5.72,16.25,20,100,1.85,MA,1701399449
498,toro,4.6117,-76.0814,24.38,96,100,0.88,CO,1701399450
499,achinsk,56.2694,90.4993,-3.5,97,100,4.02,RU,1701399451
500,dakhla,23.6848,-15.958,19.44,91,37,6.64,EH,1701399451
501,samus',56.7475,84.6992,1.24,89,100,4.4,RU,1701399452
502,qingyuan,23.7,113.0333,17.99,64,96,4.03,CN,1701399452
503,manismata,-2.4667,111.0333,27.1,81,100,1.85,ID,1701399453
504,merizo village,13.2658,144.6691,32.31,85,18,7.43,GU,1701399453
505,suva,-18.1416,178.4415,31.71,62,40,4.63,FJ,1701399231
506,hoquiam,46.9809,-123.8893,7.78,94,75,3.6,US,1701399454
507,harper,4.375,-7.7169,25.54,87,39,2.05,LR,1701399455
508,tongliao,43.6125,122.2653,-7.68,66,6,4.4,CN,1701399455
509,linhares,-19.3911,-40.0722,23.22,82,100,1.26,BR,1701399342
510,texarkana,33.4251,-94.0477,14.35,95,100,2.68,US,1701399457
511,floro,61.5996,5.0328,-1.02,64,40,3.09,NO,1701399457
512,zuyevka,58.405,51.1335,-10.07,94,96,3.48,RU,1701399458
513,antu,26.05,81.9167,20.78,63,4,1.66,IN,1701399458
514,zag,46.9441,99.165,-13.01,62,6,1.74,MN,1701399459
515,maragogi,-9.0122,-35.2225,24.82,80,84,3.66,BR,1701399459
516,conde,-7.2597,-34.9075,24.7,88,20,2.57,BR,1701399460
517,taro,-8.3862,115.28,24.0,79,99,1.35,ID,1701399461
518,socorro,31.6546,-106.3033,12.55,39,88,5.51,US,1701399461
519,el fasher,13.6279,25.3494,20.22,26,27,2.69,SD,1701399462
520,tidjikja,18.5564,-11.4271,22.29,13,80,2.09,MR,1701399462
521,grojec,51.8625,20.8676,-0.36,81,76,0.81,PL,1701399462
522,kermanshah,34.3142,47.065,7.9,38,100,0.82,IR,1701399463
523,abepura,-2.6333,140.5833,26.45,89,40,0.51,ID,1701399463
524,sanislau,47.6333,22.3333,3.92,98,100,2.75,RO,1701399464
525,new plymouth,-39.0667,174.0833,21.56,59,98,5.69,NZ,1701399464
526,empangeni,-28.762,31.8933,13.96,83,3,1.8,ZA,1701399465
527,horta,38.5333,-28.6333,13.9,74,97,1.79,PT,1701399465
528,santa terezinha,-29.9002,-50.0904,21.24,95,28,3.5,BR,1701399466
529,yelan'-koleno,51.1523,41.2306,-2.32,74,21,2.97,RU,1701399466
530,ribadeo,43.5325,-7.0991,6.5,87,62,3.02,ES,1701399466
531,saffron walden,52.0234,0.2423,-0.36,97,100,4.12,GB,1701399467
532,mbandaka,0.0487,18.2603,21.14,95,89,1.14,CD,1701399467
533,kyzyl-suu,42.3414,78.0056,3.31,60,100,1.33,KG,1701399346
534,jiuquan,39.7432,98.5174,-1.46,30,5,0.7,CN,1701399468
535,gilgit,35.9221,74.3087,7.62,96,100,0.71,PK,1701399469
536,laojunmiao,39.8333,97.7333,1.13,13,3,1.04,CN,1701399469
537,shaydon,40.6747,70.346,6.3,76,4,1.98,TJ,1701399470
538,cabedelo,-6.9811,-34.8339,25.37,80,74,5.08,BR,1701399470
539,segezha,63.7415,34.3222,-6.71,94,100,6.05,RU,1701399470
540,scarborough,54.2797,-0.4044,1.62,91,100,0.45,GB,1701399252
541,bandar-e genaveh,29.5791,50.517,17.77,63,1,5.06,IR,1701399471
542,vilhena,-12.7406,-60.1458,23.33,74,52,1.0,BR,1701399231
543,nadi,-17.8,177.4167,31.0,66,40,6.69,FJ,1701399472
544,opuwo,-18.0607,13.84,21.07,62,100,0.58,NA,1701399473
545,riviere-du-loup,47.8304,-69.5342,2.49,69,100,2.06,CA,1701399473
546,guangyuan,32.442,105.823,9.89,56,100,1.07,CN,1701399474
